name,slug,area_km2,population,latitude,longitude,country_code,num_cities,num_states,num_ut,continental_id,country_std_code
Afghanistan,afghanistan,652230,38928346,33.93911,67.709953,AF,0,0,0,3,93
Albania,albania,28748,2877797,41.153332,20.168331,AL,0,0,0,3,355
Algeria,algeria,2381741,43851044,28.033886,1.659626,DZ,0,0,0,3,213
Andorra,andorra,468,77265,42.546245,1.601554,AD,0,0,0,3,376
Angola,angola,1246700,32866272,-11.202692,17.873887,AO,0,0,0,3,244
Antigua and Barbuda,antigua-and-barbuda,442,97928,17.060816,-61.796428,AG,0,0,0,3,1-268
Argentina,argentina,2780400,45195777,-38.416097,-63.616672,AR,0,0,0,1,54
Armenia,armenia,29743,2963243,40.069099,45.038189,AM,0,0,0,3,374
Australia,australia,7692024,25499884,-25.274398,133.775136,AU,0,0,0,1,61
Austria,austria,83871,9006400,47.516231,14.550072,AT,0,0,0,3,43
Azerbaijan,azerbaijan,86600,10139177,40.143105,47.576927,AZ,0,0,0,3,994
Bahamas,bahamas,13940,393244,25.03428,-77.39628,BS,0,0,0,3,1-242
Bahrain,bahrain,760,1701575,25.930414,50.637772,BH,0,0,0,3,973
Bangladesh,bangladesh,147570,164689383,23.684994,90.356331,BD,0,0,0,3,880
Barbados,barbados,430,287371,13.193887,-59.543198,BB,0,0,0,3,1-246
Belarus,belarus,207600,9449323,53.709807,27.953389,BY,0,0,0,3,375
Belgium,belgium,30528,11589623,50.503887,4.469936,BE,0,0,0,3,32
Belize,belize,22966,397621,17.189877,-88.49765,BZ,0,0,0,3,501
Benin,benin,112622,12123198,9.30769,2.315834,BJ,0,0,0,3,229
Bhutan,bhutan,38394,771608,27.514162,90.433601,BT,0,0,0,3,975
Bolivia,bolivia,1098581,11673029,-16.290154,-63.588653,BO,0,0,0,1,591
Bosnia and Herzegovina,bosnia-and-herzegovina,51197,3280819,43.915886,17.679076,BA,0,0,0,3,387
Botswana,botswana,581730,2351627,-22.328474,24.684866,BW,0,0,0,3,267
Brazil,brazil,8515767,212559417,-14.235004,-51.92528,BR,0,0,0,1,55
Brunei,brunei,5765,437479,4.535277,114.727669,BN,0,0,0,3,673
Bulgaria,bulgaria,110879,6948445,42.733883,25.48583,BG,0,0,0,3,359
Burkina Faso,burkina-faso,274200,20903273,12.238333,-1.561593,BF,0,0,0,3,226
Burundi,burundi,27834,11890784,-3.373056,29.918886,BI,0,0,0,3,257
Cabo Verde,cabo-verde,4033,555987,16.5388,-23.0418,CV,0,0,0,3,238
Cambodia,cambodia,181035,16718965,12.565679,104.990963,KH,0,0,0,3,855
Cameroon,cameroon,475442,26545863,7.369722,12.354722,CM,0,0,0,3,237
Canada,canada,9984670,37742154,56.130366,-106.346771,CA,0,0,0,1,1
Central African Republic,central-african-republic,622984,4829767,6.611111,20.939444,CF,0,0,0,3,236
Chad,chad,1284000,16425864,15.454166,18.732207,TD,0,0,0,3,235
Chile,chile,756102,19116201,-35.675147,-71.542969,CL,0,0,0,1,56
China,china,9596960,1439323776,35.86166,104.195397,CN,0,0,0,3,86
Colombia,colombia,1138910,50882891,4.570868,-74.297333,CO,0,0,0,1,57
Comoros,comoros,1862,869601,-11.875001,43.872219,KM,0,0,0,3,269
Congo (Brazzaville),congo-brazzaville,342000,5518092,-0.228021,15.827659,CG,0,0,0,3,242
Congo (Kinshasa),congo-kinshasa,2344858,89561403,-4.038333,21.758664,CD,0,0,0,3,243
Costa Rica,costa-rica,51100,5094118,9.748917,-83.753428,CR,0,0,0,3,506
Croatia,croatia,56594,4105267,45.1,15.2,HR,0,0,0,3,385
Cuba,cuba,110860,11326616,21.521757,-77.781167,CU,0,0,0,3,53
Cyprus,cyprus,9251,1207359,35.126413,33.429859,CY,0,0,0,3,357
Czechia,czechia,78865,10708981,49.817492,15.472962,CZ,0,0,0,3,420
Denmark,denmark,43094,5792202,56.26392,9.501785,DK,0,0,0,3,45
Djibouti,djibouti,23200,988000,11.825138,42.590275,DJ,0,0,0,3,253
Dominica,dominica,751,71986,15.414999,-61.370976,DM,0,0,0,3,1-767
Dominican Republic,dominican-republic,48671,10847910,18.735693,-70.162651,DO,0,0,0,3,1-809, 1-829, 1-849
Ecuador,ecuador,276841,17643054,-1.831239,-78.183406,EC,0,0,0,1,593
Egypt,egypt,1002450,102334404,26.820553,30.802498,EG,0,0,0,3,20
El Salvador,el-salvador,21041,6486205,13.794185,-88.89653,SV,0,0,0,3,503
Equatorial Guinea,equatorial-guinea,28051,1402985,1.650801,10.267895,GQ,0,0,0,3,240
Eritrea,eritrea,117600,3546421,15.179384,39.782334,ER,0,0,0,3,291
Estonia,estonia,45227,1326535,58.595272,25.013607,EE,0,0,0,3,372
Eswatini,eswatini,17364,1160164,-26.522503,31.465866,SZ,0,0,0,3,268
Ethiopia,ethiopia,1104300,114963588,9.145,40.489673,ET,0,0,0,3,251
Fiji,fiji,18274,896445,-17.713371,178.065032,FJ,0,0,0,3,679
Finland,finland,338424,5540720,61.92411,25.748151,FI,0,0,0,3,358
France,france,551695,65273511,46.603354,1.888334,FR,0,0,0,3,33
Gabon,gabon,267668,2225734,-0.803689,11.609444,GA,0,0,0,3,241
Gambia,gambia,10689,2416668,13.443182,-15.310139,GM,0,0,0,3,220
Georgia,georgia,69700,3989167,42.315407,43.356892,GE,0,0,0,3,995
Germany,germany,357022,83783942,51.165691,10.451526,DE,0,0,0,3,49
Ghana,ghana,238533,31072940,7.946527,-1.023194,GH,0,0,0,3,233
Greece,greece,131957,10423054,39.074208,21.824312,GR,0,0,0,3,30
Grenada,grenada,344,112523,12.262776,-61.604171,GD,0,0,0,3,1-473
Guatemala,guatemala,108889,17915568,15.783471,-90.230759,GT,0,0,0,3,502
Guinea,guinea,245857,13132795,9.945587,-9.696645,GN,0,0,0,3,224
Guinea-Bissau,guinea-bissau,36125,1968001,11.803749,-15.180413,GW,0,0,0,3,245
Guyana,guyana,214969,786552,4.860416,-58.93018,GY,0,0,0,3,592
Haiti,haiti,27750,11402533,18.971187,-72.285215,HT,0,0,0,3,509
Holy See,holy-see,0,801,41.902916,12.453389,VA,0,0,0,3,379
Honduras,honduras,112492,9904607,15.199999,-86.241905,HN,0,0,0,3,504
Hungary,hungary,93028,9660351,47.162494,19.503304,HU,0,0,0,3,36
Iceland,iceland,103000,341243,64.963051,-19.020835,IS,0,0,0,3,354
India,india,3287263,1380004385,20.593684,78.96288,IN,0,0,0,3,91
Indonesia,indonesia,1904569,273523615,-0.789275,113.921327,ID,0,0,0,3,62
Iran,iran,1648195,83992949,32.427908,53.688046,IR,0,0,0,3,98
Iraq,iraq,438317,40222493,33.223191,43.679291,IQ,0,0,0,3,964
Ireland,ireland,70273,4937786,53.41291,-8.24389,IE,0,0,0,3,353
Israel,israel,20770,8655535,31.046051,34.851612,IL,0,0,0,3,972
Italy,italy,301340,60461826,41.87194,12.56738,IT,0,0,0,3,39
Jamaica,jamaica,10991,2961167,18.109581,-77.297508,JM,0,0,0,3,1-876
Japan,japan,377975,126476461,36.204824,138.252924,JP,0,0,0,3,81
Jordan,jordan,89342,10203134,30.585164,36.238414,JO,0,0,0,3,962
Kazakhstan,kazakhstan,2724900,18776707,48.019573,66.923684,KZ,0,0,0,3,7
Kenya,kenya,580367,53771296,-0.023559,37.906193,KE,0,0,0,3,254
Kiribati,kiribati,811,119449,-3.370417,-168.734039,KI,0,0,0,3,686
Korea, South,korea-south,100210,51269185,35.907757,127.766922,KR,0,0,0,3,82
Kosovo,kosovo,10908,1810366,42.602636,20.902977,XK,0,0,0,3,383
Kuwait,kuwait,17818,4270571,29.31166,47.481766,KW,0,0,0,3,965
Kyrgyzstan,kyrgyzstan,199951,6524195,41.20438,74.766098,KG,0,0,0,3,996
Laos,laos,236800,7275560,19.85627,102.495496,LA,0,0,0,3,856
Latvia,latvia,64589,1886198,56.879635,24.603189,LV,0,0,0,3,371
Lebanon,lebanon,10452,6825442,33.854721,35.862285,LB,0,0,0,3,961
Lesotho,lesotho,30355,2142249,-29.609988,28.233608,LS,0,0,0,3,266
Liberia,liberia,111369,5057681,6.428055,-9.429499,LR,0,0,0,3,231
Libya,libya,1759540,6871287,26.3351,17.228331,LY,0,0,0,3,218
Liechtenstein,liechtenstein,160,38128,47.166,9.555373,LI,0,0,0,3,423
Lithuania,lithuania,65300,2722289,55.169438,23.881275,LT,0,0,0,3,370
Luxembourg,luxembourg,2586,625978,49.815273,6.129583,LU,0,0,0,3,352
Madagascar,madagascar,587041,27691018,-18.766947,46.869107,MG,0,0,0,3,261
Malawi,malawi,118484,19129952,-13.254308,34.301525,MW,0,0,0,3,265
Malaysia,malaysia,330803,32365999,4.210484,101.975766,MY,0,0,0,3,60
Maldives,maldives,300,540544,3.202778,73.22068,MV,0,0,0,3,960
Mali,mali,1240192,20250833,17.570692,-3.996166,ML,0,0,0,3,223
Malta,malta,316,441543,35.937496,14.375416,MT,0,0,0,3,356
Marshall Islands,marshall-islands,181,59190,7.131474,171.184478,MH,0,0,0,3,692
Mauritania,mauritania,1030700,4649658,21.00789,-10.940835,MR,0,0,0,3,222
Mauritius,mauritius,2040,1271768,-20.348404,57.552152,MU,0,0,0,3,230
Mexico,mexico,1964375,128932753,23.634501,-102.552784,MX,0,0,0,1,52
Micronesia,micronesia,702,115023,7.425554,150.550812,FM,0,0,0,3,691
Moldova,moldova,33846,4033963,47.411631,28.369885,MD,0,0,0,3,373
Monaco,monaco,2,39242,43.750298,7.412841,MC,0,0,0,3,377
Mongolia,mongolia,1564116,3278290,46.862496,103.846656,MN,0,0,0,3,976
Montenegro,montenegro,13812,628066,42.708678,19.37439,ME,0,0,0,3,382
Morocco,morocco,446550,36910560,31.791702,-7.09262,MA,0,0,0,3,212
Mozambique,mozambique,801590,31255435,-18.665695,35.529562,MZ,0,0,0,3,258
Myanmar,myanmar,676578,54409800,21.916221,95.955974,MM,0,0,0,3,95
Namibia,namibia,825615,2540905,-22.95764,18.49041,NA,0,0,0,3,264
Nauru,nauru,21,10824,-0.522778,166.931503,NR,0,0,0,3,674
Nepal,nepal,147181,29136808,28.394857,84.124008,NP,0,0,0,3,977
Netherlands,netherlands,41543,17134872,52.132633,5.291266,NL,0,0,0,3,31
New Zealand,new-zealand,270467,4822233,-40.900557,174.885971,NZ,0,0,0,1,64
Nicaragua,nicaragua,130373,6624554,12.865416,-85.207229,NI,0,0,0,3,505
Niger,niger,1267000,24206636,17.607789,8.081666,NE,0,0,0,3,227
Nigeria,nigeria,923768,206139587,9.081999,8.675277,NG,0,0,0,3,234
North Macedonia,north-macedonia,25713,2083374,41.608635,21.745275,MK,0,0,0,3,389
Norway,norway,323802,5421241,60.472024,8.468946,NO,0,0,0,3,47
Oman,oman,309500,5106626,21.512583,55.923255,OM,0,0,0,3,968
Pakistan,pakistan,881912,220892340,30.375321,69.345116,PK,0,0,0,3,92
Palau,palau,459,18094,7.51498,134.58252,PW,0,0,0,3,680
Palestine,palestine,6220,5101414,31.952162,35.233154,PS,0,0,0,3,970
Panama,panama,75417,4314767,8.537981,-80.782127,PA,0,0,0,3,507
Papua New Guinea,papua-new-guinea,462840,8947024,-6.314993,143.95555,PG,0,0,0,3,675
Paraguay,paraguay,406752,7132530,-23.442503,-58.443832,PY,0,0,0,1,595
Peru,peru,1285216,32971854,-9.189967,-75.015152,PE,0,0,0,1,51
Philippines,philippines,300000,109581078,12.879721,121.774017,PH,0,0,0,3,63
Poland,poland,312696,37846611,51.919438,19.145136,PL,0,0,0,3,48
Portugal,portugal,92090,10196709,39.399872,-8.224454,PT,0,0,0,3,351
Qatar,qatar,11586,2881053,25.354826,51.183884,QA,0,0,0,3,974
Romania,romania,238397,19237691,45.943161,24.96676,RO,0,0,0,3,40
Russia,russia,17098242,145934462,61.52401,105.318756,RU,0,0,0,3,7
Rwanda,rwanda,26338,12952218,-1.940278,29.873888,RW,0,0,0,3,250
Saint Kitts and Nevis,saint-kitts-and-nevis,261,53199,17.357822,-62.782998,KN,0,0,0,3,1-869
Saint Lucia,saint-lucia,616,183627,13.909444,-60.978893,LC,0,0,0,3,1-758
Saint Vincent and the Grenadines,saint-vincent-and-the-grenadines,389,110940,12.984305,-61.287228,VC,0,0,0,3,1-784
Samoa,samoa,2831,198414,-13.759029,-172.104629,WS,0,0,0,3,685
San Marino,san-marino,61,33938,43.94236,12.457777,SM,0,0,0,3,378
Sao Tome and Principe,sao-tome-and-principe,964,219159,0.18636,6.613081,ST,0,0,0,3,239
Saudi Arabia,saudi-arabia,2149690,34813871,23.885942,45.079162,SA,0,0,0,3,966
Senegal,senegal,196722,16743927,14.497401,-14.452362,SN,0,0,0,3,221
Serbia,serbia,88361,8737371,44.016521,21.005859,RS,0,0,0,3,381
Seychelles,seychelles,459,98347,-4.679574,55.491977,SC,0,0,0,3,248
Sierra Leone,sierra-leone,71740,7976983,8.460555,-11.779889,SL,0,0,0,3,232
Singapore,singapore,725,5850343,1.352083,103.819836,SG,0,0,0,3,65
Slovakia,slovakia,49037,5459642,48.669026,19.699024,SK,0,0,0,3,421
Slovenia,slovenia,20273,2078938,46.151241,14.995463,SI,0,0,0,3,386
Solomon Islands,solomon-islands,28896,686884,-9.64571,160.156194,SB,0,0,0,3,677
Somalia,somalia,637657,15893219,5.152149,46.199616,SO,0,0,0,3,252
South Africa,south-africa,1221037,59308690,-30.559482,22.937506,ZA,0,0,0,3,27
South Sudan,south-sudan,644329,11193725,6.876992,31.306978,SS,0,0,0,3,211
Spain,spain,505992,46754778,40.463667,-3.74922,ES,0,0,0,3,34
Sri Lanka,sri-lanka,65610,21413249,7.873054,80.771797,LK,0,0,0,3,94
Sudan,sudan,1886068,43849260,12.862807,30.217636,SD,0,0,0,3,249
Suriname,suriname,163820,586632,3.919305,-56.027783,SR,0,0,0,3,597
Sweden,sweden,450295,10099265,60.128161,18.643501,SE,0,0,0,3,46
Switzerland,switzerland,41284,8654622,46.818188,8.227512,CH,0,0,0,3,41
Syria,syria,185180,17500658,34.802075,38.996815,SY,0,0,0,3,963
Taiwan,taiwan,36193,23816775,23.69781,120.960515,TW,0,0,0,3,886
Tajikistan,tajikistan,143100,9537645,38.861034,71.276093,TJ,0,0,0,3,992
Tanzania,tanzania,947300,59734213,-6.369028,34.888822,TZ,0,0,0,3,255
Thailand,thailand,513120,69799978,15.870032,100.992541,TH,0,0,0,3,66
Timor-Leste,timor-leste,14874,1318445,-8.874217,125.727539,TL,0,0,0,3,670
Togo,togo,56785,8278737,8.619543,0.824782,TG,0,0,0,3,228
Tonga,tonga,747,105695,-21.178986,-175.198242,TO,0,0,0,3,676
Trinidad and Tobago,trinidad-and-tobago,5130,1399488,10.691803,-61.222503,TT,0,0,0,3,1-868
Tunisia,tunisia,163610,11818619,33.886917,9.537499,TN,0,0,0,3,216
Turkey,turkey,783356,84339067,38.963745,35.243322,TR,0,0,0,3,90
Turkmenistan,turkmenistan,488100,6031187,38.969719,59.556278,TM,0,0,0,3,993
Tuvalu,tuvalu,26,11792,-7.109535,177.64933,TV,0,0,0,3,688
Uganda,uganda,241038,45741007,1.373333,32.290275,UG,0,0,0,3,256
Ukraine,ukraine,603500,43733762,48.379433,31.16558,UA,0,0,0,3,380
United Arab Emirates,united-arab-emirates,83600,9890402,23.424076,53.847818,AE,0,0,0,3,971
United Kingdom,united-kingdom,243610,67886011,55.378051,-3.435973,GB,0,0,0,3,44
United States,united-states,9833517,331002651,37.09024,-95.712891,US,0,0,0,1,1
Uruguay,uruguay,176215,3473730,-32.522779,-55.765835,UY,0,0,0,1,598
Uzbekistan,uzbekistan,447400,33469203,41.377491,64.585262,UZ,0,0,0,3,998
Vanuatu,vanuatu,12189,307145,-15.376706,166.959158,VU,0,0,0,3,678
Vatican City,vatican-city,0,801,41.902916,12.453389,VA,0,0,0,3,379
Venezuela,venezuela,916445,28435943,6.42375,-66.58973,VE,0,0,0,1,58
Vietnam,vietnam,331212,97338579,14.058324,108.277199,VN,0,0,0,3,84
Yemen,yemen,527968,29825968,15.552727,48.516388,YE,0,0,0,3,967
Zambia,zambia,752612,18383955,-13.133897,27.849332,ZM,0,0,0,3,260
Zimbabwe,zimbabwe,390757,14862924,-19.015438,29.154857,ZW,0,0,0,3,263
